[{
    "_id": {
      "$oid": "665c88ef03eba08e4455c897"
    },
    "cinema_name": "Galaxy Kinh Dương Vương",
    "location_name": "718 Đ. Kinh Dương Vương, Phường 13, Quận 6, Thành phố Hồ Chí Minh, Việt Nam",
    "latitude": 10.750243678639457,
    "longitude": 106.62839394006274,
    "hasManyAmenities": false
  },
  {
    "_id": {
      "$oid": "665c88ef03eba08e4455c898"
    },
    "cinema_name": "CGV Celadon Tân Phú, Aeon Mall",
    "location_name": "30 Đ. Tân Thắng, Sơn Kỳ, Tân Phú, Thành phố Hồ Chí Minh, Việt Nam",
    "latitude": 10.801816205425826,
    "longitude": 106.6179682090705,
    "hasManyAmenities": true
  },
  {
    "_id": {
      "$oid": "665c88ef03eba08e4455c899"
    },
    "cinema_name": "CGV Pandora City, Pandora City",
    "location_name": "1/1 Đ. Trường Chinh, Tây Thạnh, Tân Phú, Thành phố Hồ Chí Minh, Việt Nam",
    "latitude": 10.806514852210972,
    "longitude": 106.63426768239121,
    "hasManyAmenities": true
  },
  {
    "_id": {
      "$oid": "665c88ef03eba08e4455c89a"
    },
    "cinema_name": "CGV Hoàng Văn Thụ",
    "location_name": "415 Đ. Hoàng Văn Thụ, Phường 2, Tân Bình, Thành phố Hồ Chí Minh, Việt Nam",
    "latitude": 10.798810416618306,
    "longitude": 106.66011590937403,
    "hasManyAmenities": true
  },
  {
    "_id": {
      "$oid": "665c88ef03eba08e4455c89b"
    },
    "cinema_name": "Galaxy Cinema Tân Bình",
    "location_name": "246 Đ. Nguyễn Hồng Đào, Phường 13, Tân Bình, Thành phố Hồ Chí Minh, Việt Nam",
    "latitude": 10.790697776274595,
    "longitude": 106.6407523977355,
    "hasManyAmenities": true
  },
  {
    "_id": {
      "$oid": "665c88ef03eba08e4455c89c"
    },
    "cinema_name": "Mega GS Cinemas Lý Chính Thắng",
    "location_name": "212 Lý Chính Thắng, Phường 9, Quận 3, Thành phố Hồ Chí Minh 72414, Việt Nam",
    "latitude": 10.780870857781993,
    "longitude": 106.6824182958823,
    "hasManyAmenities": true
  },
  {
    "_id": {
      "$oid": "665c88ef03eba08e4455c89d"
    },
    "cinema_name": "BHD Star Cineplex",
    "location_name": "Vincom Plaza 3/2, 3C Đ. 3 Tháng 2, Phường 11, Quận 10, Thành phố Hồ Chí Minh 700000, Việt Nam",
    "latitude": 10.778949935786802,
    "longitude": 106.68207391354409,
    "hasManyAmenities": true
  },
  {
    "_id": {
      "$oid": "665c88ef03eba08e4455c89e"
    },
    "cinema_name": "Galaxy Nguyễn Du",
    "location_name": "116 Đ. Nguyễn Du, Phường Bến Thành, Quận 1, Thành phố Hồ Chí Minh 700000, Việt Nam",
    "latitude": 10.77342320196169,
    "longitude": 106.69312312286519,
    "hasManyAmenities": true
  },
  {
    "_id": {
      "$oid": "665c88ef03eba08e4455c89f"
    },
    "cinema_name": "Cinestar Cinema Quốc Thanh",
    "location_name": "271 Đ. Nguyễn Trãi, Phường Nguyễn Cư Trinh, Quận 1, Thành phố Hồ Chí Minh 70000, Việt Nam",
    "latitude": 10.764033610498284,
    "longitude": 106.68732743820972,
    "hasManyAmenities": true
  },
  {
    "_id": {
      "$oid": "665c88ef03eba08e4455c8a0"
    },
    "cinema_name": "Galaxy Cinema Huỳnh Tấn Phát",
    "location_name": "1362 Huỳnh Tấn Phát, Phú Mỹ, Quận 7, Thành phố Hồ Chí Minh 700000, Việt Nam",
    "latitude": 10.712518468487897,
    "longitude": 106.73633001122613,
    "hasManyAmenities": false
  },
  {
    "_id": {
      "$oid": "665c88ef03eba08e4455c8a1"
    },
    "cinema_name": "Galaxy Cinema Nguyễn Văn Quá",
    "location_name": "119B Nguyễn Văn Quá, Đông Hưng Thuận, Quận 12, Thành phố Hồ Chí Minh, Việt Nam",
    "latitude": 10.847352894910623,
    "longitude": 106.63396816519383,
    "hasManyAmenities": false
  },
  {
    "_id": {
      "$oid": "665c88ef03eba08e4455c8a2"
    },
    "cinema_name": "CGV Celadon Tân Phú",
    "location_name": "Aeon Mall, 30 Đ. Tân Thắng, Sơn Kỳ, Tân Phú, Thành phố Hồ Chí Minh, Việt Nam",
    "latitude": 10.801997073894167,
    "longitude": 106.61798532471883,
    "hasManyAmenities": true
  },
  {
    "_id": {
      "$oid": "665c88ef03eba08e4455c8a3"
    },
    "cinema_name": "Galaxy Cinema Quang Trung",
    "location_name": "304A Quang Trung, Phường 11, Gò Vấp, Thành phố Hồ Chí Minh, Việt Nam",
    "latitude": 10.83486854022337,
    "longitude": 106.66233138424482,
    "hasManyAmenities": true
  },
  {
    "_id": {
      "$oid": "665c88ef03eba08e4455c8a4"
    },
    "cinema_name": "Lotte Cinema Gò Vấp",
    "location_name": "Lotte Mart, 242 Nguyễn Văn Lượng, Phường 10, Gò Vấp, Thành phố Hồ Chí Minh 700000, Việt Nam",
    "latitude": 10.838379363829441,
    "longitude": 106.67158785355538,
    "hasManyAmenities": true
  },
  {
    "_id": {
      "$oid": "665c88ef03eba08e4455c8a5"
    },
    "cinema_name": "CGV Gò Vấp",
    "location_name": "12 Đ. Phan Văn Trị, Phường 5, Gò Vấp, Thành phố Hồ Chí Minh, Việt Nam",
    "latitude": 10.827285119028842,
    "longitude": 106.68921724232764,
    "hasManyAmenities": true
  },
  {
    "_id": {
      "$oid": "665c88ef03eba08e4455c8a6"
    },
    "cinema_name": "CGV Thảo Điền Pearl",
    "location_name": "12 Đ. Quốc Hương, Thảo Điền, Quận 2, Thành phố Hồ Chí Minh, Việt Nam",
    "latitude": 10.804342955783484,
    "longitude": 106.73309271128197,
    "hasManyAmenities": true
  },
  {
    "_id": {
      "$oid": "665c88ef03eba08e4455c8a7"
    },
    "cinema_name": "Lotte Cinema Cantavil",
    "location_name": "RP2W+HQC, Song Hành, An Phú, Quận 2, Thành phố Hồ Chí Minh, Việt Nam",
    "latitude": 10.801582731789004,
    "longitude": 106.74701811308043,
    "hasManyAmenities": true
  },
  {
    "_id": {
      "$oid": "665c88ef03eba08e4455c8a8"
    },
    "cinema_name": "Bhd Star Lê Văn Việt",
    "location_name": "Vincom Plaza, Lê Văn Việt, Hiệp Phú, Quận 9, Thành phố Hồ Chí Minh, Việt Nam",
    "latitude": 10.845294273018514,
    "longitude": 106.77867586704704,
    "hasManyAmenities": true
  },
  {
    "_id": {
      "$oid": "665c88ef03eba08e4455c8a9"
    },
    "cinema_name": "CGV Vincom Thủ Đức",
    "location_name": "216 Võ Văn Ngân, Bình Thọ, Thủ Đức, Thành phố Hồ Chí Minh, Việt Nam",
    "latitude": 10.85023734482356,
    "longitude": 106.7652353670471,
    "hasManyAmenities": true
  },
  {
    "_id": {
      "$oid": "665c88ef03eba08e4455c8aa"
    },
    "cinema_name": "Galaxy Co.opXtra Linh Trung",
    "location_name": "934 QL1A, Phường Linh Trung, Thủ Đức, Thành phố Hồ Chí Minh, Việt Nam",
    "latitude": 10.868047462564746,
    "longitude": 106.77670605355591,
    "hasManyAmenities": true
  }]